header: 
  seq: 1329
  stamp: 
    secs: 1504484180
    nsecs: 893431708
  frame_id: crazyflie/base_link
values: [5299973.0, 843478.5, 182.32296752929688, 5299926.5, 5298021.0, 297.4317626953125]
---
header: 
  seq: 1330
  stamp: 
    secs: 1504484180
    nsecs: 994274001
  frame_id: crazyflie/base_link
values: [5299999.5, 627239.4375, 4.439705848693848, 5299999.0, 5299595.5, 4.728991985321045]
---
header: 
  seq: 1331
  stamp: 
    secs: 1504484181
    nsecs: 101656511
  frame_id: crazyflie/base_link
values: [5299999.5, 1095010.875, 3.311039924621582, 5299999.5, 5299717.5, 11.564887046813965]
---
header: 
  seq: 1332
  stamp: 
    secs: 1504484181
    nsecs: 193544663
  frame_id: crazyflie/base_link
values: [5299998.0, 959188.5625, 13.556818008422852, 5299998.0, 5299463.0, 26.744688034057617]
---
header: 
  seq: 1333
  stamp: 
    secs: 1504484181
    nsecs: 293567927
  frame_id: crazyflie/base_link
values: [5299990.0, 659392.0, 63.29840087890625, 5299972.0, 5298507.5, 104.95365905761719]
---
header: 
  seq: 1334
  stamp: 
    secs: 1504484181
    nsecs: 393195959
  frame_id: crazyflie/base_link
values: [5299998.5, 477335.75, 5.219964027404785, 5299999.5, 5299241.5, 13.4607515335083]
---
header: 
  seq: 1335
  stamp: 
    secs: 1504484181
    nsecs: 498629548
  frame_id: crazyflie/base_link
values: [5299998.0, 1409004.125, 7.823501110076904, 5299991.5, 5299576.0, 24.106250762939453]
---
header: 
  seq: 1336
  stamp: 
    secs: 1504484181
    nsecs: 592341046
  frame_id: crazyflie/base_link
values: [5299999.5, 414853.0625, 175.5457305908203, 5299901.0, 5250106.5, 113.50566101074219]
---
header: 
  seq: 1337
  stamp: 
    secs: 1504484181
    nsecs: 691516367
  frame_id: crazyflie/base_link
values: [5299996.0, 204143.453125, 32.39909362792969, 5299988.5, 5163536.0, 45.36014175415039]
---
header: 
  seq: 1338
  stamp: 
    secs: 1504484181
    nsecs: 790725212
  frame_id: crazyflie/base_link
values: [5300000.0, 2883.892822265625, 7.650150775909424, 5299993.0, 4445531.5, 8.040623664855957]
---
header: 
  seq: 1339
  stamp: 
    secs: 1504484181
    nsecs: 890744984
  frame_id: crazyflie/base_link
values: [5300000.0, 536.8092651367188, 6.734023094177246, 5299992.0, 4022595.5, 9.32571792602539]
---
header: 
  seq: 1340
  stamp: 
    secs: 1504484181
    nsecs: 989994267
  frame_id: crazyflie/base_link
values: [5300000.0, 509.1382141113281, 7.054867267608643, 5299992.0, 4217683.0, 9.25482177734375]
---
header: 
  seq: 1341
  stamp: 
    secs: 1504484182
    nsecs:  89495258
  frame_id: crazyflie/base_link
values: [5300000.0, 627.9324340820312, 5.161472320556641, 5299995.5, 4328603.5, 5.30430793762207]
---
header: 
  seq: 1342
  stamp: 
    secs: 1504484182
    nsecs: 190759253
  frame_id: crazyflie/base_link
values: [5300000.0, 280.65557861328125, 7.555630683898926, 5299991.0, 3653493.5, 14.786704063415527]
---
header: 
  seq: 1343
  stamp: 
    secs: 1504484182
    nsecs: 288964758
  frame_id: crazyflie/base_link
values: [5299999.5, 38.61418533325195, 1.0836397409439087, 5299999.0, 3396116.5, 2.6333749294281006]
---
header: 
  seq: 1344
  stamp: 
    secs: 1504484182
    nsecs: 389991501
  frame_id: crazyflie/base_link
values: [5299999.0, 16.450021743774414, 2.2496140003204346, 5299998.5, 2007324.375, 7.587069988250732]
---
header: 
  seq: 1345
  stamp: 
    secs: 1504484182
    nsecs: 488200149
  frame_id: crazyflie/base_link
values: [5299999.5, 37.32164001464844, 2.2566490173339844, 5299995.5, 2570748.75, 12.912837028503418]
---
header: 
  seq: 1346
  stamp: 
    secs: 1504484182
    nsecs: 588037356
  frame_id: crazyflie/base_link
values: [5300000.0, 653.0589599609375, 13.775890350341797, 5299983.5, 4078699.25, 24.64994239807129]
---
header: 
  seq: 1347
  stamp: 
    secs: 1504484182
    nsecs: 688013617
  frame_id: crazyflie/base_link
values: [5300000.0, 834.7755737304688, 16.40328025817871, 5299982.0, 4151874.25, 25.633586883544922]
---
header: 
  seq: 1348
  stamp: 
    secs: 1504484182
    nsecs: 793636127
  frame_id: crazyflie/base_link
values: [5300000.0, 648.2999267578125, 13.816080093383789, 5299988.5, 3835859.25, 20.313526153564453]
---
header: 
  seq: 1349
  stamp: 
    secs: 1504484182
    nsecs: 886688882
  frame_id: crazyflie/base_link
values: [5300000.0, 1270.03125, 21.611446380615234, 5299983.0, 4135023.0, 34.04798889160156]
---
header: 
  seq: 1350
  stamp: 
    secs: 1504484182
    nsecs: 987720375
  frame_id: crazyflie/base_link
values: [5300000.0, 3230.871826171875, 29.97588348388672, 5299974.5, 4800483.0, 40.53606414794922]
---
header: 
  seq: 1351
  stamp: 
    secs: 1504484183
    nsecs:  86993264
  frame_id: crazyflie/base_link
values: [5300000.0, 1636.3984375, 18.95344352722168, 5299979.5, 4351682.5, 27.21046257019043]
---
header: 
  seq: 1352
  stamp: 
    secs: 1504484183
    nsecs: 186601601
  frame_id: crazyflie/base_link
values: [5300000.0, 492.71881103515625, 14.82655143737793, 5299981.5, 3528974.0, 34.125587463378906]
---
header: 
  seq: 1353
  stamp: 
    secs: 1504484183
    nsecs: 285388744
  frame_id: crazyflie/base_link
values: [5299998.0, 71.99302673339844, 4.145662307739258, 5299997.5, 2812628.75, 8.496376991271973]
---
header: 
  seq: 1354
  stamp: 
    secs: 1504484183
    nsecs: 385956212
  frame_id: crazyflie/base_link
values: [5299996.0, 64.68079376220703, 3.1709909439086914, 5299995.5, 2156708.5, 9.575268745422363]
---
header: 
  seq: 1355
  stamp: 
    secs: 1504484183
    nsecs: 486066149
  frame_id: crazyflie/base_link
values: [5299997.0, 74.39704895019531, 3.3680224418640137, 5299998.0, 2828530.75, 5.592146396636963]
---
header: 
  seq: 1356
  stamp: 
    secs: 1504484183
    nsecs: 584423070
  frame_id: crazyflie/base_link
values: [5300000.0, 292.9497375488281, 44.31740188598633, 5299933.0, 2083107.625, 139.7110595703125]
---
header: 
  seq: 1357
  stamp: 
    secs: 1504484183
    nsecs: 684711451
  frame_id: crazyflie/base_link
values: [5300000.0, 196.01165771484375, 34.59449768066406, 5299943.0, 1523992.25, 150.0644989013672]
---
header: 
  seq: 1358
  stamp: 
    secs: 1504484183
    nsecs: 783164544
  frame_id: crazyflie/base_link
values: [5299993.5, 137.6738739013672, 13.722368240356445, 5299989.0, 2592608.25, 10.821002006530762]
---
header: 
  seq: 1359
  stamp: 
    secs: 1504484183
    nsecs: 883979249
  frame_id: crazyflie/base_link
values: [5300000.0, 374.12371826171875, 40.9945182800293, 5299937.0, 2351448.75, 141.12509155273438]
---
header: 
  seq: 1360
  stamp: 
    secs: 1504484183
    nsecs: 982257669
  frame_id: crazyflie/base_link
values: [5300000.0, 759.0716552734375, 14.842652320861816, 5299985.0, 4602589.5, 23.225505828857422]
---
header: 
  seq: 1361
  stamp: 
    secs: 1504484184
    nsecs:  82992895
  frame_id: crazyflie/base_link
values: [5300000.0, 976.1759643554688, 123.1368408203125, 5299911.0, 1684320.0, 359.27471923828125]
---
header: 
  seq: 1362
  stamp: 
    secs: 1504484184
    nsecs: 181700489
  frame_id: crazyflie/base_link
values: [5299587.0, 2189.218017578125, 1075.6561279296875, 5299746.5, 1144525.0, 3346.679443359375]
---
header: 
  seq: 1363
  stamp: 
    secs: 1504484184
    nsecs: 282174229
  frame_id: crazyflie/base_link
values: [5299795.0, 1469.5216064453125, 531.088134765625, 5299875.5, 1646907.0, 2037.3077392578125]
---
header: 
  seq: 1364
  stamp: 
    secs: 1504484184
    nsecs: 381443906
  frame_id: crazyflie/base_link
values: [5300000.0, 937.9426879882812, 29.283727645874023, 5299966.0, 3192991.75, 124.56709289550781]
---
header: 
  seq: 1365
  stamp: 
    secs: 1504484184
    nsecs: 480182929
  frame_id: crazyflie/base_link
values: [4281898.0, 5299998.0, 2381016.0, 4590120.0, 5299998.0, 2660106.75]
---
header: 
  seq: 1366
  stamp: 
    secs: 1504484184
    nsecs: 580231545
  frame_id: crazyflie/base_link
values: [4559598.5, 5299998.5, 3438357.25, 3839227.0, 5299998.5, 3612038.5]
---
header: 
  seq: 1367
  stamp: 
    secs: 1504484184
    nsecs: 680204105
  frame_id: crazyflie/base_link
values: [4273128.5, 5299998.5, 823520.125, 2601443.0, 5299998.0, 3008726.75]
---
header: 
  seq: 1368
  stamp: 
    secs: 1504484184
    nsecs: 780984378
  frame_id: crazyflie/base_link
values: [503114.4375, 5299998.5, 5299977.0, 3187557.25, 5299999.0, 3304752.75]
---
header: 
  seq: 1369
  stamp: 
    secs: 1504484184
    nsecs: 880134557
  frame_id: crazyflie/base_link
values: [3634034.25, 3454811.25, 5299893.0, 178.2625274658203, 5300000.0, 4406307.0]
---
header: 
  seq: 1370
  stamp: 
    secs: 1504484184
    nsecs: 980092240
  frame_id: crazyflie/base_link
values: [3061481.5, 5299994.5, 5299611.0, 465636.0625, 5299968.5, 3677818.75]
---
header: 
  seq: 1371
  stamp: 
    secs: 1504484185
    nsecs:  80046221
  frame_id: crazyflie/base_link
values: [3497171.25, 5300000.0, 3748750.5, 5299968.0, 4178367.0, 5291234.0]
---
header: 
  seq: 1372
  stamp: 
    secs: 1504484185
    nsecs: 180480571
  frame_id: crazyflie/base_link
values: [5055201.5, 5300000.0, 11716.443359375, 5299992.0, 4730036.5, 430391.4375]
---
header: 
  seq: 1373
  stamp: 
    secs: 1504484185
    nsecs: 277499892
  frame_id: crazyflie/base_link
values: [2623422.0, 4611756.5, 5299981.5, 29792.3515625, 5300000.0, 4787196.5]
---
header: 
  seq: 1374
  stamp: 
    secs: 1504484185
    nsecs: 377862515
  frame_id: crazyflie/base_link
values: [1859010.25, 4993273.5, 5299980.5, 126.61360168457031, 5300000.0, 4246629.5]
---
header: 
  seq: 1375
  stamp: 
    secs: 1504484185
    nsecs: 478094046
  frame_id: crazyflie/base_link
values: [4679694.5, 5299999.0, 2310727.5, 5299989.0, 5096430.5, 3694115.25]
---
header: 
  seq: 1376
  stamp: 
    secs: 1504484185
    nsecs: 577391380
  frame_id: crazyflie/base_link
values: [5299851.5, 5299992.0, 2043258.25, 4691941.5, 5299608.5, 2897095.0]
---
header: 
  seq: 1377
  stamp: 
    secs: 1504484185
    nsecs: 678038326
  frame_id: crazyflie/base_link
values: [898786.3125, 5299916.5, 5299968.5, 557.5081176757812, 5299996.0, 4323255.0]
---
header: 
  seq: 1378
  stamp: 
    secs: 1504484185
    nsecs: 777473317
  frame_id: crazyflie/base_link
values: [4068663.0, 5299987.5, 5299990.5, 3283683.75, 5299997.5, 4780710.5]
---
header: 
  seq: 1379
  stamp: 
    secs: 1504484185
    nsecs: 875292460
  frame_id: crazyflie/base_link
values: [5299918.0, 5299998.0, 4830623.5, 3861744.75, 5299997.5, 5299971.5]
---
header: 
  seq: 1380
  stamp: 
    secs: 1504484185
    nsecs: 975260131
  frame_id: crazyflie/base_link
values: [4099949.5, 5299974.5, 5299989.0, 3905036.0, 5299995.5, 5177433.5]
---
header: 
  seq: 1381
  stamp: 
    secs: 1504484186
    nsecs:  75056131
  frame_id: crazyflie/base_link
values: [4759538.0, 5299978.0, 5099584.0, 3939264.75, 5299996.0, 5299991.0]
---
header: 
  seq: 1382
  stamp: 
    secs: 1504484186
    nsecs: 175927618
  frame_id: crazyflie/base_link
values: [4930178.0, 5299984.0, 4831221.0, 4426230.5, 5299998.0, 5299987.5]
---
header: 
  seq: 1383
  stamp: 
    secs: 1504484186
    nsecs: 274864012
  frame_id: crazyflie/base_link
values: [4813133.0, 5299945.0, 5267651.0, 4399372.5, 5299965.0, 5299643.5]
---
header: 
  seq: 1384
  stamp: 
    secs: 1504484186
    nsecs: 373772120
  frame_id: crazyflie/base_link
values: [3728821.75, 5299984.0, 4561656.0, 3088948.0, 5299974.0, 5299145.0]
---
header: 
  seq: 1385
  stamp: 
    secs: 1504484186
    nsecs: 473744400
  frame_id: crazyflie/base_link
values: [4141504.25, 5299989.0, 4440877.0, 3225679.0, 5299997.0, 5299925.5]
---
header: 
  seq: 1386
  stamp: 
    secs: 1504484186
    nsecs: 573740287
  frame_id: crazyflie/base_link
values: [2825794.0, 5299986.0, 3936128.0, 2533183.5, 5299944.5, 5297956.5]
---
header: 
  seq: 1387
  stamp: 
    secs: 1504484186
    nsecs: 673608713
  frame_id: crazyflie/base_link
values: [5299869.0, 5299995.0, 1769402.75, 4765345.5, 5299877.0, 3222370.75]
---
header: 
  seq: 1388
  stamp: 
    secs: 1504484186
    nsecs: 773844155
  frame_id: crazyflie/base_link
values: [5032726.5, 5299984.5, 4223688.5, 5299318.5, 5299936.0, 4727718.5]
---
header: 
  seq: 1389
  stamp: 
    secs: 1504484186
    nsecs: 871741590
  frame_id: crazyflie/base_link
values: [2476069.25, 5299987.5, 3698391.75, 2146011.5, 5299962.5, 5298429.5]
---
header: 
  seq: 1390
  stamp: 
    secs: 1504484186
    nsecs: 971164917
  frame_id: crazyflie/base_link
values: [4219018.5, 5299998.5, 4805919.0, 4187546.25, 5299996.0, 5255522.0]
---
header: 
  seq: 1391
  stamp: 
    secs: 1504484187
    nsecs:  71099902
  frame_id: crazyflie/base_link
values: [3298527.0, 5299996.5, 4205615.0, 2386066.5, 5299999.5, 5299992.5]
---
header: 
  seq: 1392
  stamp: 
    secs: 1504484187
    nsecs: 171119395
  frame_id: crazyflie/base_link
values: [5299003.5, 5299989.5, 4132016.5, 5140753.5, 5299977.5, 4995402.0]
---
header: 
  seq: 1393
  stamp: 
    secs: 1504484187
    nsecs: 271676246
  frame_id: crazyflie/base_link
values: [5056069.5, 5299996.0, 4877909.0, 5102005.5, 5299995.5, 5285493.5]
---
header: 
  seq: 1394
  stamp: 
    secs: 1504484187
    nsecs: 369510336
  frame_id: crazyflie/base_link
values: [4870609.0, 5299964.0, 4993689.0, 3872114.5, 5299973.0, 5299308.5]
---
header: 
  seq: 1395
  stamp: 
    secs: 1504484187
    nsecs: 471318743
  frame_id: crazyflie/base_link
values: [5299868.5, 5299998.0, 3672718.75, 5299302.0, 5299967.5, 4809898.0]
---
header: 
  seq: 1396
  stamp: 
    secs: 1504484187
    nsecs: 568952597
  frame_id: crazyflie/base_link
values: [4878553.0, 5299993.5, 3098300.0, 5299971.5, 5299839.0, 3770498.0]
---
header: 
  seq: 1397
  stamp: 
    secs: 1504484187
    nsecs: 669230502
  frame_id: crazyflie/base_link
values: [5299964.5, 5300000.0, 3582674.0, 5299942.0, 5299963.5, 4299572.5]
---
header: 
  seq: 1398
  stamp: 
    secs: 1504484187
    nsecs: 768999335
  frame_id: crazyflie/base_link
values: [4792504.5, 5299864.0, 4917363.5, 3505870.25, 5299992.0, 5299959.0]
---
header: 
  seq: 1399
  stamp: 
    secs: 1504484187
    nsecs: 869539774
  frame_id: crazyflie/base_link
values: [4486850.5, 5299975.5, 5129353.5, 3645353.5, 5299988.0, 5299780.0]
---
header: 
  seq: 1400
  stamp: 
    secs: 1504484187
    nsecs: 967289774
  frame_id: crazyflie/base_link
values: [5299680.5, 5299968.5, 3520581.25, 5262810.5, 5299862.5, 4345222.5]
---
header: 
  seq: 1401
  stamp: 
    secs: 1504484188
    nsecs:  67035768
  frame_id: crazyflie/base_link
values: [5299905.5, 5299999.5, 1018132.9375, 5299992.5, 5293295.5, 2020785.625]
---
header: 
  seq: 1402
  stamp: 
    secs: 1504484188
    nsecs: 167645559
  frame_id: crazyflie/base_link
values: [5299887.0, 5299995.5, 3729786.0, 4868352.5, 5299976.5, 5067088.5]
---
header: 
  seq: 1403
  stamp: 
    secs: 1504484188
    nsecs: 267575096
  frame_id: crazyflie/base_link
values: [5299302.0, 5299982.0, 4398797.0, 5011777.0, 5299974.5, 5297619.0]
---
header: 
  seq: 1404
  stamp: 
    secs: 1504484188
    nsecs: 367097110
  frame_id: crazyflie/base_link
values: [5219363.0, 5299985.0, 4716750.5, 4054059.0, 5299993.0, 5299711.5]
---
header: 
  seq: 1405
  stamp: 
    secs: 1504484188
    nsecs: 466874113
  frame_id: crazyflie/base_link
values: [5299941.0, 5299995.5, 3671888.0, 4580776.5, 5299985.5, 4258040.5]
---
header: 
  seq: 1406
  stamp: 
    secs: 1504484188
    nsecs: 566825720
  frame_id: crazyflie/base_link
values: [5150817.5, 5299986.5, 3168350.0, 5299727.0, 5299948.0, 4080404.0]
---
header: 
  seq: 1407
  stamp: 
    secs: 1504484188
    nsecs: 665496368
  frame_id: crazyflie/base_link
values: [5286845.5, 5299986.5, 2095014.875, 5299884.5, 5299893.0, 3196833.0]
---
header: 
  seq: 1408
  stamp: 
    secs: 1504484188
    nsecs: 769447576
  frame_id: crazyflie/base_link
values: [5299844.5, 5299995.5, 3236474.5, 4981182.0, 5299988.5, 4123456.25]
---
header: 
  seq: 1409
  stamp: 
    secs: 1504484188
    nsecs: 865394274
  frame_id: crazyflie/base_link
values: [4518249.0, 5299990.5, 4825526.5, 3935692.5, 5299997.0, 5299924.0]
---
header: 
  seq: 1410
  stamp: 
    secs: 1504484188
    nsecs: 965426059
  frame_id: crazyflie/base_link
values: [5297654.5, 5299929.5, 3899450.5, 5240438.5, 5299862.5, 4755850.0]
---
header: 
  seq: 1411
  stamp: 
    secs: 1504484189
    nsecs:  65360276
  frame_id: crazyflie/base_link
values: [5087775.5, 5299999.5, 723054.4375, 5299988.5, 5165678.5, 2180102.5]
---
header: 
  seq: 1412
  stamp: 
    secs: 1504484189
    nsecs: 165386054
  frame_id: crazyflie/base_link
values: [5298296.5, 5299948.5, 4410238.0, 5164614.0, 5299933.5, 5295060.5]
---
header: 
  seq: 1413
  stamp: 
    secs: 1504484189
    nsecs: 263459350
  frame_id: crazyflie/base_link
values: [5299942.5, 5299997.0, 4351380.0, 4621728.0, 5299983.5, 5283666.5]
---
header: 
  seq: 1414
  stamp: 
    secs: 1504484189
    nsecs: 365517440
  frame_id: crazyflie/base_link
values: [5299788.0, 5299989.0, 3265314.0, 5223871.5, 5299975.0, 4198781.0]
---
header: 
  seq: 1415
  stamp: 
    secs: 1504484189
    nsecs: 462816544
  frame_id: crazyflie/base_link
values: [5260695.0, 5299994.5, 3426316.75, 5299900.5, 5299865.0, 4373199.5]
---
header: 
  seq: 1416
  stamp: 
    secs: 1504484189
    nsecs: 562873123
  frame_id: crazyflie/base_link
values: [5299914.5, 5299999.0, 3210644.75, 4823009.5, 5299969.5, 3849764.75]
---
header: 
  seq: 1417
  stamp: 
    secs: 1504484189
    nsecs: 662865238
  frame_id: crazyflie/base_link
values: [5299973.0, 5299998.5, 3077665.75, 5104696.0, 5299980.5, 4246592.5]
---
header: 
  seq: 1418
  stamp: 
    secs: 1504484189
    nsecs: 762890876
  frame_id: crazyflie/base_link
values: [5291560.5, 5299987.5, 1734200.625, 5299867.5, 5299716.5, 2833487.25]
---
header: 
  seq: 1419
  stamp: 
    secs: 1504484189
    nsecs: 860065804
  frame_id: crazyflie/base_link
values: [5299972.0, 5299997.5, 2480433.5, 5244295.5, 5299989.0, 3140899.75]
---
header: 
  seq: 1420
  stamp: 
    secs: 1504484189
    nsecs: 960013499
  frame_id: crazyflie/base_link
values: [5299972.0, 5299999.5, 4765312.5, 4329289.5, 5299973.5, 5049497.0]
---
header: 
  seq: 1421
  stamp: 
    secs: 1504484190
    nsecs:  60243983
  frame_id: crazyflie/base_link
values: [5299909.5, 5299997.5, 1696509.625, 5299963.0, 5299776.5, 2772531.25]
---
header: 
  seq: 1422
  stamp: 
    secs: 1504484190
    nsecs: 160153056
  frame_id: crazyflie/base_link
values: [4949127.0, 5299999.0, 1100418.75, 5299991.0, 5232417.0, 1717862.25]
---
header: 
  seq: 1423
  stamp: 
    secs: 1504484190
    nsecs: 260050885
  frame_id: crazyflie/base_link
values: [5299187.0, 5299970.5, 4419066.0, 5205219.0, 5299972.0, 5299444.0]
---
header: 
  seq: 1424
  stamp: 
    secs: 1504484190
    nsecs: 360154048
  frame_id: crazyflie/base_link
values: [5299988.0, 5299997.5, 4175243.5, 4731869.5, 5299954.0, 4868579.0]
---
header: 
  seq: 1425
  stamp: 
    secs: 1504484190
    nsecs: 459998938
  frame_id: crazyflie/base_link
values: [5299998.5, 5299999.5, 2271241.75, 5295209.5, 5299998.0, 2936997.25]
---
header: 
  seq: 1426
  stamp: 
    secs: 1504484190
    nsecs: 657877383
  frame_id: crazyflie/base_link
values: [5299711.5, 5299984.0, 4509049.0, 5047707.0, 5299955.0, 5293384.0]
---
header: 
  seq: 1427
  stamp: 
    secs: 1504484190
    nsecs: 758033904
  frame_id: crazyflie/base_link
values: [5299980.0, 5300000.0, 4856246.0, 4237290.0, 5299989.0, 5299293.0]
---
header: 
  seq: 1428
  stamp: 
    secs: 1504484190
    nsecs: 858000667
  frame_id: crazyflie/base_link
values: [5299995.0, 5300000.0, 4619694.5, 4674245.5, 5299986.0, 5293857.0]
---
header: 
  seq: 1429
  stamp: 
    secs: 1504484190
    nsecs: 967403476
  frame_id: crazyflie/base_link
values: [5299834.0, 5299973.0, 242125.84375, 5258505.5, 5299074.0, 1259024.0]
---
header: 
  seq: 1430
  stamp: 
    secs: 1504484191
    nsecs:  57874198
  frame_id: crazyflie/base_link
values: [5107567.5, 5299967.5, 1572481.25, 5299549.0, 5299357.0, 2627170.5]
---
header: 
  seq: 1431
  stamp: 
    secs: 1504484191
    nsecs: 157868408
  frame_id: crazyflie/base_link
values: [5299995.5, 5299998.5, 1120818.0, 5240237.0, 5299995.5, 1984938.625]
---
header: 
  seq: 1432
  stamp: 
    secs: 1504484191
    nsecs: 255178688
  frame_id: crazyflie/base_link
values: [5299942.0, 5299982.5, 2143444.0, 5241266.0, 5299935.5, 3000247.5]
---
header: 
  seq: 1433
  stamp: 
    secs: 1504484191
    nsecs: 362848036
  frame_id: crazyflie/base_link
values: [5299991.0, 5299996.5, 3105171.75, 5061066.0, 5299974.0, 3946423.5]
---
header: 
  seq: 1434
  stamp: 
    secs: 1504484191
    nsecs: 455876905
  frame_id: crazyflie/base_link
values: [5136765.0, 5299979.0, 2176203.5, 5299745.5, 5299604.5, 2961483.0]
---
header: 
  seq: 1435
  stamp: 
    secs: 1504484191
    nsecs: 555946893
  frame_id: crazyflie/base_link
values: [5299767.0, 5299992.0, 4035588.25, 4989225.5, 5299949.0, 4890156.0]
---
header: 
  seq: 1436
  stamp: 
    secs: 1504484191
    nsecs: 655284316
  frame_id: crazyflie/base_link
values: [5299985.5, 5299998.0, 4507578.0, 4952216.5, 5299960.5, 5015005.0]
---
header: 
  seq: 1437
  stamp: 
    secs: 1504484191
    nsecs: 754862691
  frame_id: crazyflie/base_link
values: [5299725.0, 5299971.0, 1886289.875, 5077615.0, 5299934.5, 2878335.25]
---
header: 
  seq: 1438
  stamp: 
    secs: 1504484191
    nsecs: 853775828
  frame_id: crazyflie/base_link
values: [5002001.0, 5299998.5, 1135644.5, 5299990.0, 5299846.5, 2060038.125]
---
header: 
  seq: 1439
  stamp: 
    secs: 1504484191
    nsecs: 953856990
  frame_id: crazyflie/base_link
values: [5282799.0, 5299987.5, 3149554.5, 5299925.0, 5299859.0, 3930358.25]
---
header: 
  seq: 1440
  stamp: 
    secs: 1504484192
    nsecs:  53756705
  frame_id: crazyflie/base_link
values: [5299939.5, 5299995.5, 1872989.375, 5299880.5, 5299883.5, 2784179.25]
---
header: 
  seq: 1441
  stamp: 
    secs: 1504484192
    nsecs: 153903798
  frame_id: crazyflie/base_link
values: [5299956.5, 5300000.0, 4456441.5, 4639456.0, 5299979.0, 5260724.5]
---
header: 
  seq: 1442
  stamp: 
    secs: 1504484192
    nsecs: 253674097
  frame_id: crazyflie/base_link
values: [5066485.0, 5299997.5, 1299.9705810546875, 5299986.5, 5281509.5, 1371712.125]
---
header: 
  seq: 1443
  stamp: 
    secs: 1504484192
    nsecs: 351763875
  frame_id: crazyflie/base_link
values: [4448550.0, 5299992.5, 161011.546875, 5299946.0, 5298742.5, 922497.875]
---
header: 
  seq: 1444
  stamp: 
    secs: 1504484192
    nsecs: 451348606
  frame_id: crazyflie/base_link
values: [5299996.5, 5300000.0, 4389891.5, 4371778.5, 5299992.5, 5099914.0]
---
header: 
  seq: 1445
  stamp: 
    secs: 1504484192
    nsecs: 551271019
  frame_id: crazyflie/base_link
values: [5299965.0, 5299999.0, 3779604.5, 4596709.5, 5299990.0, 4200866.0]
---
header: 
  seq: 1446
  stamp: 
    secs: 1504484192
    nsecs: 651056194
  frame_id: crazyflie/base_link
values: [5208190.0, 5299999.5, 974094.875, 5299991.5, 5299993.0, 2007360.5]
---
header: 
  seq: 1447
  stamp: 
    secs: 1504484192
    nsecs: 751690989
  frame_id: crazyflie/base_link
values: [4929442.0, 5299959.5, 2075284.875, 5299557.5, 5299853.0, 2805847.0]
---
header: 
  seq: 1448
  stamp: 
    secs: 1504484192
    nsecs: 850967370
  frame_id: crazyflie/base_link
values: [5299968.5, 5299991.5, 2726264.5, 5050300.0, 5299965.0, 4036216.75]
---
header: 
  seq: 1449
  stamp: 
    secs: 1504484192
    nsecs: 949641021
  frame_id: crazyflie/base_link
values: [5299990.0, 5299998.5, 3935125.25, 4521707.5, 5299988.5, 4227381.5]
---
header: 
  seq: 1450
  stamp: 
    secs: 1504484193
    nsecs:  57604611
  frame_id: crazyflie/base_link
values: [4799637.0, 5299995.5, 548439.8125, 5299964.5, 5299889.0, 1834778.25]
---
header: 
  seq: 1451
  stamp: 
    secs: 1504484193
    nsecs: 148987740
  frame_id: crazyflie/base_link
values: [5299967.5, 5299982.0, 1592434.375, 5266044.5, 5299958.5, 2605817.25]
---
header: 
  seq: 1452
  stamp: 
    secs: 1504484193
    nsecs: 248964769
  frame_id: crazyflie/base_link
values: [5297575.0, 5299998.5, 798317.75, 5299994.0, 5299985.5, 1589394.625]
---
header: 
  seq: 1453
  stamp: 
    secs: 1504484193
    nsecs: 349031195
  frame_id: crazyflie/base_link
values: [5299980.5, 5299999.0, 3281523.75, 5101800.0, 5299992.0, 4256901.5]
---
header: 
  seq: 1454
  stamp: 
    secs: 1504484193
    nsecs: 453975406
  frame_id: crazyflie/base_link
values: [5299971.5, 5299991.0, 2249884.75, 5276642.5, 5299960.5, 3221489.75]
---
header: 
  seq: 1455
  stamp: 
    secs: 1504484193
    nsecs: 547399577
  frame_id: crazyflie/base_link
values: [5299960.0, 5299992.0, 293257.34375, 5265589.0, 5299981.5, 1194290.875]
---
header: 
  seq: 1456
  stamp: 
    secs: 1504484193
    nsecs: 647508257
  frame_id: crazyflie/base_link
values: [5299787.5, 5299979.0, 68358.671875, 4982428.0, 5299937.0, 1120249.5]
---
header: 
  seq: 1457
  stamp: 
    secs: 1504484193
    nsecs: 747612048
  frame_id: crazyflie/base_link
values: [5299972.0, 5300000.0, 24.309951782226562, 4838031.0, 4791720.0, 1210925.625]
---
header: 
  seq: 1458
  stamp: 
    secs: 1504484193
    nsecs: 847298538
  frame_id: crazyflie/base_link
values: [4716238.5, 5299962.5, 4137967.25, 5214337.0, 5299996.0, 5299940.0]
---
header: 
  seq: 1459
  stamp: 
    secs: 1504484193
    nsecs: 946585325
  frame_id: crazyflie/base_link
values: [5094484.5, 5299998.0, 4811512.0, 5299926.0, 5299990.0, 5299751.5]
---
header: 
  seq: 1460
  stamp: 
    secs: 1504484194
    nsecs:  45369675
  frame_id: crazyflie/base_link
values: [5299986.0, 5299998.5, 2310226.5, 5008008.0, 5283604.0, 2061449.125]
---
header: 
  seq: 1461
  stamp: 
    secs: 1504484194
    nsecs: 146115587
  frame_id: crazyflie/base_link
values: [5299990.0, 5299999.5, 4490487.0, 5299938.5, 4764786.0, 5252497.5]
---
header: 
  seq: 1462
  stamp: 
    secs: 1504484194
    nsecs: 245791949
  frame_id: crazyflie/base_link
values: [4193735.25, 5299977.5, 4382578.0, 5299907.5, 4849726.5, 5299071.0]
---
header: 
  seq: 1463
  stamp: 
    secs: 1504484194
    nsecs: 344818998
  frame_id: crazyflie/base_link
values: [5299994.0, 5299999.5, 3689779.5, 5299968.0, 4319148.5, 5299978.0]
---
header: 
  seq: 1464
  stamp: 
    secs: 1504484194
    nsecs: 444521550
  frame_id: crazyflie/base_link
values: [4277785.5, 5300000.0, 3848165.25, 5299933.0, 4136442.75, 5299988.5]
---
header: 
  seq: 1465
  stamp: 
    secs: 1504484194
    nsecs: 544304211
  frame_id: crazyflie/base_link
values: [4246107.5, 5300000.0, 2969017.5, 5299974.5, 4215454.0, 5299959.5]
---
header: 
  seq: 1466
  stamp: 
    secs: 1504484194
    nsecs: 644044548
  frame_id: crazyflie/base_link
values: [3883134.5, 5300000.0, 3566012.75, 5299976.5, 3664935.75, 5299995.5]
---
header: 
  seq: 1467
  stamp: 
    secs: 1504484194
    nsecs: 745430346
  frame_id: crazyflie/base_link
values: [4677107.0, 5299989.5, 3394241.5, 5299986.5, 4375552.0, 5299942.0]
---
header: 
  seq: 1468
  stamp: 
    secs: 1504484194
    nsecs: 842521813
  frame_id: crazyflie/base_link
values: [4607699.5, 5299980.0, 2904267.25, 5299983.5, 4963544.5, 5299409.0]
---
header: 
  seq: 1469
  stamp: 
    secs: 1504484194
    nsecs: 942403718
  frame_id: crazyflie/base_link
values: [3825648.75, 5299999.5, 4209512.5, 5299999.5, 4346610.5, 5299992.5]
---
header: 
  seq: 1470
  stamp: 
    secs: 1504484195
    nsecs:  44260456
  frame_id: crazyflie/base_link
values: [4066171.75, 5299999.5, 3985533.0, 5299998.5, 5283129.0, 5299995.5]
---
header: 
  seq: 1471
  stamp: 
    secs: 1504484195
    nsecs: 142287586
  frame_id: crazyflie/base_link
values: [4456996.5, 5299999.5, 4381047.5, 5299999.5, 4236500.0, 5299993.5]
---
header: 
  seq: 1472
  stamp: 
    secs: 1504484195
    nsecs: 241044837
  frame_id: crazyflie/base_link
values: [5191970.5, 5300000.0, 2981558.75, 5300000.0, 3882565.0, 5299999.0]
---
header: 
  seq: 1473
  stamp: 
    secs: 1504484195
    nsecs: 340715403
  frame_id: crazyflie/base_link
values: [4344316.0, 5299979.0, 3178805.75, 5299981.5, 3152994.5, 5299788.5]
---
header: 
  seq: 1474
  stamp: 
    secs: 1504484195
    nsecs: 440997289
  frame_id: crazyflie/base_link
values: [3186149.75, 5300000.0, 2611373.5, 5299999.0, 3251921.75, 5299998.5]
---
header: 
  seq: 1475
  stamp: 
    secs: 1504484195
    nsecs: 539802033
  frame_id: crazyflie/base_link
values: [3949735.25, 5299962.0, 3011394.5, 5299911.0, 3456387.0, 5299858.5]
---
header: 
  seq: 1476
  stamp: 
    secs: 1504484195
    nsecs: 640672751
  frame_id: crazyflie/base_link
values: [4197076.0, 5299991.0, 3438418.75, 5299984.0, 4357014.0, 5299973.0]
---
header: 
  seq: 1477
  stamp: 
    secs: 1504484195
    nsecs: 740288840
  frame_id: crazyflie/base_link
values: [4751723.0, 5299991.5, 3284325.5, 5299986.5, 4281990.0, 5299983.5]
---
header: 
  seq: 1478
  stamp: 
    secs: 1504484195
    nsecs: 840269222
  frame_id: crazyflie/base_link
values: [4757479.0, 5300000.0, 2682211.75, 5299996.5, 3632785.5, 5300000.0]
---
header: 
  seq: 1479
  stamp: 
    secs: 1504484195
    nsecs: 938718194
  frame_id: crazyflie/base_link
values: [4309479.0, 5300000.0, 2158582.75, 5300000.0, 2970007.5, 5300000.0]
---
header: 
  seq: 1480
  stamp: 
    secs: 1504484196
    nsecs:  46608869
  frame_id: crazyflie/base_link
values: [3695762.0, 5300000.0, 1983487.375, 5300000.0, 2379986.25, 5300000.0]
---
header: 
  seq: 1481
  stamp: 
    secs: 1504484196
    nsecs: 138690760
  frame_id: crazyflie/base_link
values: [3684040.75, 5300000.0, 1686881.25, 5300000.0, 2258472.0, 5300000.0]
---
header: 
  seq: 1482
  stamp: 
    secs: 1504484196
    nsecs: 238100678
  frame_id: crazyflie/base_link
values: [4084884.25, 5300000.0, 1860282.0, 5300000.0, 2295010.75, 5300000.0]
---
header: 
  seq: 1483
  stamp: 
    secs: 1504484196
    nsecs: 337576456
  frame_id: crazyflie/base_link
values: [4332413.0, 5300000.0, 2101923.75, 5300000.0, 3087961.75, 5300000.0]
---
header: 
  seq: 1484
  stamp: 
    secs: 1504484196
    nsecs: 437032540
  frame_id: crazyflie/base_link
values: [4875135.0, 5299992.5, 2327206.25, 5299977.5, 3546587.25, 5299996.0]
---
header: 
  seq: 1485
  stamp: 
    secs: 1504484196
    nsecs: 536099327
  frame_id: crazyflie/base_link
values: [4931857.0, 5300000.0, 2570324.25, 5299970.0, 3989006.5, 5300000.0]
---
header: 
  seq: 1486
  stamp: 
    secs: 1504484196
    nsecs: 635856217
  frame_id: crazyflie/base_link
values: [4517546.5, 5299999.5, 2537543.25, 5299992.0, 3782331.75, 5300000.0]
---
header: 
  seq: 1487
  stamp: 
    secs: 1504484196
    nsecs: 735976281
  frame_id: crazyflie/base_link
values: [3892297.75, 5300000.0, 2155328.25, 5300000.0, 3427400.25, 5300000.0]
---
header: 
  seq: 1488
  stamp: 
    secs: 1504484196
    nsecs: 835770466
  frame_id: crazyflie/base_link
values: [3367079.5, 5300000.0, 2157459.25, 5300000.0, 2868300.75, 5300000.0]
---
header: 
  seq: 1489
  stamp: 
    secs: 1504484196
    nsecs: 935371679
  frame_id: crazyflie/base_link
values: [3256047.25, 5300000.0, 1711890.875, 5300000.0, 2445319.0, 5300000.0]
---
header: 
  seq: 1490
  stamp: 
    secs: 1504484197
    nsecs:  35821743
  frame_id: crazyflie/base_link
values: [3169719.25, 5300000.0, 2116511.25, 5300000.0, 1486042.625, 5300000.0]
---
header: 
  seq: 1491
  stamp: 
    secs: 1504484197
    nsecs: 134376804
  frame_id: crazyflie/base_link
values: [2595790.25, 5300000.0, 2768771.25, 5300000.0, 1062015.25, 5300000.0]
---
header: 
  seq: 1492
  stamp: 
    secs: 1504484197
    nsecs: 234708208
  frame_id: crazyflie/base_link
values: [3558923.5, 5300000.0, 2072435.875, 5300000.0, 1308372.25, 5299997.0]
---
header: 
  seq: 1493
  stamp: 
    secs: 1504484197
    nsecs: 333475446
  frame_id: crazyflie/base_link
values: [5204413.5, 5299998.5, 1267469.0, 5299998.5, 1992616.5, 5299998.0]
---
header: 
  seq: 1494
  stamp: 
    secs: 1504484197
    nsecs: 434186437
  frame_id: crazyflie/base_link
values: [5293623.0, 5299994.5, 1881920.625, 5299996.0, 2399742.25, 5299992.5]
---
header: 
  seq: 1495
  stamp: 
    secs: 1504484197
    nsecs: 532586520
  frame_id: crazyflie/base_link
values: [5155525.0, 5300000.0, 2896256.5, 5300000.0, 1943068.0, 5299999.5]
---
header: 
  seq: 1496
  stamp: 
    secs: 1504484197
    nsecs: 632625149
  frame_id: crazyflie/base_link
values: [4914248.5, 5300000.0, 2948412.75, 5300000.0, 2284781.75, 5300000.0]
---
header: 
  seq: 1497
  stamp: 
    secs: 1504484197
    nsecs: 732752477
  frame_id: crazyflie/base_link
values: [4283427.5, 5300000.0, 3557028.5, 5300000.0, 2431088.0, 5300000.0]
---
header: 
  seq: 1498
  stamp: 
    secs: 1504484197
    nsecs: 832210306
  frame_id: crazyflie/base_link
values: [3983704.0, 5300000.0, 3863163.5, 5300000.0, 2437042.5, 5299982.0]
---
header: 
  seq: 1499
  stamp: 
    secs: 1504484197
    nsecs: 931347284
  frame_id: crazyflie/base_link
values: [4344105.0, 5299948.5, 2652641.0, 5299986.0, 3072357.25, 5299945.5]
---
header: 
  seq: 1500
  stamp: 
    secs: 1504484198
    nsecs:  30808675
  frame_id: crazyflie/base_link
values: [4883573.5, 5300000.0, 1729345.75, 5300000.0, 3481338.0, 5299991.5]
---
header: 
  seq: 1501
  stamp: 
    secs: 1504484198
    nsecs: 131827038
  frame_id: crazyflie/base_link
values: [4358527.5, 5299866.5, 1902054.625, 5299954.5, 3456406.25, 5299894.5]
---
header: 
  seq: 1502
  stamp: 
    secs: 1504484198
    nsecs: 230694848
  frame_id: crazyflie/base_link
values: [4219126.5, 5299998.0, 2365320.75, 5300000.0, 3020591.5, 5299975.5]
---
header: 
  seq: 1503
  stamp: 
    secs: 1504484198
    nsecs: 329639064
  frame_id: crazyflie/base_link
values: [4372747.0, 5300000.0, 2940235.5, 5300000.0, 2925449.25, 5300000.0]
---
header: 
  seq: 1504
  stamp: 
    secs: 1504484198
    nsecs: 430699332
  frame_id: crazyflie/base_link
values: [4009551.5, 5300000.0, 3701431.25, 5300000.0, 2925225.25, 5300000.0]
---
header: 
  seq: 1505
  stamp: 
    secs: 1504484198
    nsecs: 528730234
  frame_id: crazyflie/base_link
values: [4581914.0, 5300000.0, 2720480.0, 5300000.0, 3466174.0, 5299998.5]
---
header: 
  seq: 1506
  stamp: 
    secs: 1504484198
    nsecs: 629136996
  frame_id: crazyflie/base_link
values: [4874999.0, 5300000.0, 2184189.25, 5300000.0, 3775956.0, 5299999.0]
---
header: 
  seq: 1507
  stamp: 
    secs: 1504484198
    nsecs: 728237657
  frame_id: crazyflie/base_link
values: [4832569.0, 5300000.0, 2426638.75, 5300000.0, 3740585.25, 5299998.5]
---
header: 
  seq: 1508
  stamp: 
    secs: 1504484198
    nsecs: 828621093
  frame_id: crazyflie/base_link
values: [4597369.0, 5300000.0, 3278828.75, 5300000.0, 3357950.25, 5300000.0]
---
header: 
  seq: 1509
  stamp: 
    secs: 1504484198
    nsecs: 928406059
  frame_id: crazyflie/base_link
values: [4312409.0, 5299994.5, 4294577.5, 5299996.0, 2766497.5, 5299985.5]
---
header: 
  seq: 1510
  stamp: 
    secs: 1504484199
    nsecs:  28271202
  frame_id: crazyflie/base_link
values: [4802243.0, 5299996.5, 4289987.0, 5299998.0, 2075450.25, 5299994.5]
---
header: 
  seq: 1511
  stamp: 
    secs: 1504484199
    nsecs: 127537317
  frame_id: crazyflie/base_link
values: [5295491.5, 5299999.5, 2643431.75, 5299999.5, 1937889.125, 5299999.5]
---
header: 
  seq: 1512
  stamp: 
    secs: 1504484199
    nsecs: 227461965
  frame_id: crazyflie/base_link
values: [3889730.75, 5299998.5, 1471609.25, 5300000.0, 2790668.75, 5299999.5]
---
header: 
  seq: 1513
  stamp: 
    secs: 1504484199
    nsecs: 327024556
  frame_id: crazyflie/base_link
values: [3106196.5, 5300000.0, 982514.9375, 5300000.0, 1488370.375, 5300000.0]
---
header: 
  seq: 1514
  stamp: 
    secs: 1504484199
    nsecs: 427428246
  frame_id: crazyflie/base_link
values: [4075201.25, 5299992.5, 510244.90625, 5300000.0, 177029.15625, 5299999.5]
---
header: 
  seq: 1515
  stamp: 
    secs: 1504484199
    nsecs: 525137389
  frame_id: crazyflie/base_link
values: [3542100.0, 5300000.0, 601201.5625, 5300000.0, 598233.8125, 5299999.5]
---
header: 
  seq: 1516
  stamp: 
    secs: 1504484199
    nsecs: 724437872
  frame_id: crazyflie/base_link
values: [3627389.5, 5300000.0, 3072079.25, 5300000.0, 0.0, 5300000.0]
---
header: 
  seq: 1517
  stamp: 
    secs: 1504484199
    nsecs: 824430825
  frame_id: crazyflie/base_link
values: [3832230.0, 5299997.5, 344334.40625, 5299999.5, 465544.875, 5299999.5]
---
header: 
  seq: 1518
  stamp: 
    secs: 1504484199
    nsecs: 923949696
  frame_id: crazyflie/base_link
values: [4766808.5, 5300000.0, 102.50617980957031, 5300000.0, 701677.0, 5300000.0]
---
header: 
  seq: 1519
  stamp: 
    secs: 1504484200
    nsecs:  24186465
  frame_id: crazyflie/base_link
values: [4683187.5, 5299998.0, 449526.125, 5300000.0, 474731.75, 5299998.5]
---
header: 
  seq: 1520
  stamp: 
    secs: 1504484200
    nsecs: 123951386
  frame_id: crazyflie/base_link
values: [4580679.5, 5299998.5, 220.40118408203125, 5300000.0, 2210204.0, 5300000.0]
---
header: 
  seq: 1521
  stamp: 
    secs: 1504484200
    nsecs: 223174199
  frame_id: crazyflie/base_link
values: [3543495.5, 5300000.0, 1546025.875, 5300000.0, 1766544.25, 5299998.5]
---
header: 
  seq: 1522
  stamp: 
    secs: 1504484200
    nsecs: 331623255
  frame_id: crazyflie/base_link
values: [1449857.875, 5299999.0, 4083539.5, 5299999.0, 2512861.5, 5299996.0]
---
header: 
  seq: 1523
  stamp: 
    secs: 1504484200
    nsecs: 522887801
  frame_id: crazyflie/base_link
values: [3922220.75, 5299999.5, 3381318.75, 5300000.0, 1405072.375, 5299998.5]
---
header: 
  seq: 1524
  stamp: 
    secs: 1504484200
    nsecs: 621193389
  frame_id: crazyflie/base_link
values: [3542760.25, 5300000.0, 3043262.0, 5300000.0, 733750.9375, 5299986.5]
---
header: 
  seq: 1525
  stamp: 
    secs: 1504484200
    nsecs: 722615993
  frame_id: crazyflie/base_link
values: [3328990.5, 5300000.0, 2537188.5, 5300000.0, 397979.3125, 5300000.0]
---
header: 
  seq: 1526
  stamp: 
    secs: 1504484200
    nsecs: 821131663
  frame_id: crazyflie/base_link
values: [3720089.5, 5299999.5, 1605653.5, 5299999.5, 116434.71875, 5299999.5]
---
header: 
  seq: 1527
  stamp: 
    secs: 1504484200
    nsecs: 921063016
  frame_id: crazyflie/base_link
values: [3639692.5, 5300000.0, 2215638.0, 5300000.0, 11.5761137008667, 5300000.0]
---
header: 
  seq: 1528
  stamp: 
    secs: 1504484201
    nsecs:  20804820
  frame_id: crazyflie/base_link
values: [3059720.0, 5300000.0, 902875.125, 5300000.0, 61.31391143798828, 5300000.0]
---
header: 
  seq: 1529
  stamp: 
    secs: 1504484201
    nsecs: 120163684
  frame_id: crazyflie/base_link
values: [2613504.75, 5300000.0, 119540.2421875, 5300000.0, 0.0, 5299988.0]
---
header: 
  seq: 1530
  stamp: 
    secs: 1504484201
    nsecs: 220494529
  frame_id: crazyflie/base_link
values: [3785338.5, 5300000.0, 460120.4375, 5300000.0, 21.32129669189453, 5299999.0]
---
header: 
  seq: 1531
  stamp: 
    secs: 1504484201
    nsecs: 319810580
  frame_id: crazyflie/base_link
values: [3461657.5, 5300000.0, 119431.5546875, 5300000.0, 5.066859245300293, 5299991.0]
---
header: 
  seq: 1532
  stamp: 
    secs: 1504484201
    nsecs: 419657285
  frame_id: crazyflie/base_link
values: [2369223.25, 5299999.5, 102329.8984375, 5300000.0, 81.00225067138672, 5299999.5]
---
header: 
  seq: 1533
  stamp: 
    secs: 1504484201
    nsecs: 518863895
  frame_id: crazyflie/base_link
values: [2319256.0, 5299985.0, 434447.5, 5299989.5, 98.29722595214844, 5299942.0]
---
header: 
  seq: 1534
  stamp: 
    secs: 1504484201
    nsecs: 617356797
  frame_id: crazyflie/base_link
values: [2647953.5, 5300000.0, 482828.78125, 5300000.0, 28.043670654296875, 5300000.0]
---
header: 
  seq: 1535
  stamp: 
    secs: 1504484201
    nsecs: 718487605
  frame_id: crazyflie/base_link
values: [2572240.0, 5300000.0, 702236.6875, 5300000.0, 1.3264482021331787, 5299998.5]
---
header: 
  seq: 1536
  stamp: 
    secs: 1504484201
    nsecs: 817810081
  frame_id: crazyflie/base_link
values: [2828994.0, 5300000.0, 932409.375, 5300000.0, 8519.5546875, 5299995.0]
---
header: 
  seq: 1537
  stamp: 
    secs: 1504484201
    nsecs: 916839504
  frame_id: crazyflie/base_link
values: [3731566.5, 5300000.0, 1489804.25, 5300000.0, 0.0, 5300000.0]
---
header: 
  seq: 1538
  stamp: 
    secs: 1504484202
    nsecs:  17270082
  frame_id: crazyflie/base_link
values: [3972969.75, 5299964.5, 1551371.25, 5300000.0, 521917.96875, 5299987.0]
---
header: 
  seq: 1539
  stamp: 
    secs: 1504484202
    nsecs: 116672248
  frame_id: crazyflie/base_link
values: [3805246.75, 5299998.5, 2118845.25, 5299998.5, 1029190.375, 5299994.5]
---
header: 
  seq: 1540
  stamp: 
    secs: 1504484202
    nsecs: 215976426
  frame_id: crazyflie/base_link
values: [3996458.25, 5299996.0, 2109777.5, 5299997.5, 1366867.625, 5299990.0]
---
header: 
  seq: 1541
  stamp: 
    secs: 1504484202
    nsecs: 315583855
  frame_id: crazyflie/base_link
values: [4519965.0, 5299994.0, 2112603.25, 5299997.0, 1254868.125, 5299987.5]
---
header: 
  seq: 1542
  stamp: 
    secs: 1504484202
    nsecs: 516249527
  frame_id: crazyflie/base_link
values: [4090215.75, 5300000.0, 2000514.125, 5300000.0, 438887.65625, 5300000.0]
---
header: 
  seq: 1543
  stamp: 
    secs: 1504484202
    nsecs: 614381978
  frame_id: crazyflie/base_link
values: [3667600.5, 5300000.0, 1124504.375, 5300000.0, 302280.25, 5300000.0]
---
header: 
  seq: 1544
  stamp: 
    secs: 1504484202
    nsecs: 713758931
  frame_id: crazyflie/base_link
values: [3284757.25, 5299988.0, 613092.1875, 5299997.0, 317924.125, 5299983.5]
---
header: 
  seq: 1545
  stamp: 
    secs: 1504484202
    nsecs: 813410011
  frame_id: crazyflie/base_link
values: [3586009.25, 5299995.5, 716952.5, 5299999.0, 673.0443725585938, 5299981.0]
---
header: 
  seq: 1546
  stamp: 
    secs: 1504484202
    nsecs: 914223529
  frame_id: crazyflie/base_link
values: [3782453.5, 5299999.5, 1289074.0, 5300000.0, 185.94554138183594, 5299999.5]
---
header: 
  seq: 1547
  stamp: 
    secs: 1504484203
    nsecs:  13509059
  frame_id: crazyflie/base_link
values: [3432840.0, 5299999.5, 2058193.25, 5300000.0, 222.45431518554688, 5299986.0]
---
header: 
  seq: 1548
  stamp: 
    secs: 1504484203
    nsecs: 113361003
  frame_id: crazyflie/base_link
values: [3818177.25, 5299998.5, 1736605.125, 5299999.5, 12312.69921875, 5299998.5]
---
header: 
  seq: 1549
  stamp: 
    secs: 1504484203
    nsecs: 212677403
  frame_id: crazyflie/base_link
values: [4497254.0, 5300000.0, 1870751.125, 5300000.0, 0.5550265312194824, 5299996.0]
---
header: 
  seq: 1550
  stamp: 
    secs: 1504484203
    nsecs: 311249715
  frame_id: crazyflie/base_link
values: [4430753.5, 5299998.5, 1352988.875, 5299999.5, 109361.828125, 5299990.5]
---
header: 
  seq: 1551
  stamp: 
    secs: 1504484203
    nsecs: 411356230
  frame_id: crazyflie/base_link
values: [4863831.5, 5299999.0, 1824502.125, 5299999.5, 17594.67578125, 5299999.5]
---
header: 
  seq: 1552
  stamp: 
    secs: 1504484203
    nsecs: 510481195
  frame_id: crazyflie/base_link
values: [4187268.0, 5300000.0, 2615226.25, 5300000.0, 62809.66796875, 5300000.0]
---
header: 
  seq: 1553
  stamp: 
    secs: 1504484203
    nsecs: 611472180
  frame_id: crazyflie/base_link
values: [4654240.5, 5299997.0, 1775708.125, 5299999.5, 360479.1875, 5299978.0]
---
header: 
  seq: 1554
  stamp: 
    secs: 1504484203
    nsecs: 720308786
  frame_id: crazyflie/base_link
values: [5238207.0, 5299999.5, 1028971.0, 5300000.0, 774874.0625, 5299994.5]
---
header: 
  seq: 1555
  stamp: 
    secs: 1504484203
    nsecs: 811118099
  frame_id: crazyflie/base_link
values: [4757433.0, 5299999.5, 1986597.5, 5299999.5, 544686.5625, 5299999.5]
---
header: 
  seq: 1556
  stamp: 
    secs: 1504484203
    nsecs: 910440227
  frame_id: crazyflie/base_link
values: [4867735.5, 5299997.0, 2560462.0, 5299999.0, 28240.490234375, 5299998.0]
---
header: 
  seq: 1557
  stamp: 
    secs: 1504484204
    nsecs:   9678824
  frame_id: crazyflie/base_link
values: [4176992.25, 5299989.5, 2587885.5, 5299998.5, 219416.71875, 5299958.5]
---
header: 
  seq: 1558
  stamp: 
    secs: 1504484204
    nsecs: 109733167
  frame_id: crazyflie/base_link
values: [4263442.5, 5299993.5, 2116088.5, 5299999.5, 1017.868896484375, 5299964.5]
---
header: 
  seq: 1559
  stamp: 
    secs: 1504484204
    nsecs: 208786336
  frame_id: crazyflie/base_link
values: [4419125.0, 5300000.0, 1212302.25, 5300000.0, 411512.46875, 5299998.0]
---
header: 
  seq: 1560
  stamp: 
    secs: 1504484204
    nsecs: 308836070
  frame_id: crazyflie/base_link
values: [4359353.0, 5300000.0, 1388893.875, 5300000.0, 616674.5, 5299998.0]
---
header: 
  seq: 1561
  stamp: 
    secs: 1504484204
    nsecs: 407117702
  frame_id: crazyflie/base_link
values: [4570599.5, 5299998.5, 1999434.875, 5300000.0, 106.1424789428711, 5299897.5]
---
header: 
  seq: 1562
  stamp: 
    secs: 1504484204
    nsecs: 507339106
  frame_id: crazyflie/base_link
values: [4617905.0, 5300000.0, 1957536.75, 5300000.0, 3.6181130409240723, 5299962.0]
---
header: 
  seq: 1563
  stamp: 
    secs: 1504484204
    nsecs: 606476852
  frame_id: crazyflie/base_link
values: [4402560.5, 5299999.5, 1702778.75, 5299999.5, 1190.3614501953125, 5299980.0]
---
header: 
  seq: 1564
  stamp: 
    secs: 1504484204
    nsecs: 708678466
  frame_id: crazyflie/base_link
values: [4200359.5, 5299999.5, 1504818.375, 5299999.0, 506923.125, 5299984.5]
---
header: 
  seq: 1565
  stamp: 
    secs: 1504484204
    nsecs: 808242314
  frame_id: crazyflie/base_link
values: [4412634.5, 5299994.5, 1615217.5, 5300000.0, 4392.8193359375, 5299984.0]
---
header: 
  seq: 1566
  stamp: 
    secs: 1504484204
    nsecs: 905833845
  frame_id: crazyflie/base_link
values: [4244980.0, 5299998.0, 2508167.0, 5299999.5, 18.579524993896484, 5299998.5]
---
header: 
  seq: 1567
  stamp: 
    secs: 1504484205
    nsecs: 104680081
  frame_id: crazyflie/base_link
values: [4474956.0, 5299999.5, 2496725.5, 5300000.0, 2.9641451835632324, 5299999.5]
---
header: 
  seq: 1568
  stamp: 
    secs: 1504484205
    nsecs: 304454018
  frame_id: crazyflie/base_link
values: [5299996.5, 5299999.5, 805458.75, 5300000.0, 0.8357674479484558, 5299999.5]
---
header: 
  seq: 1569
  stamp: 
    secs: 1504484205
    nsecs: 404531270
  frame_id: crazyflie/base_link
values: [5299999.0, 5300000.0, 606568.875, 5299999.5, 0.33425578474998474, 5299997.0]
---
header: 
  seq: 1570
  stamp: 
    secs: 1504484205
    nsecs: 504601956
  frame_id: crazyflie/base_link
values: [5299805.0, 5299951.5, 991726.9375, 5299994.0, 1659165.0, 5299851.5]
---
header: 
  seq: 1571
  stamp: 
    secs: 1504484205
    nsecs: 603283988
  frame_id: crazyflie/base_link
values: [5295691.0, 5298910.0, 492571.40625, 5299806.0, 1476818.5, 5299664.0]
---
header: 
  seq: 1572
  stamp: 
    secs: 1504484205
    nsecs: 702700471
  frame_id: crazyflie/base_link
values: [5014898.5, 5299992.5, 1702501.0, 5299998.0, 2102094.0, 5299983.5]
---
header: 
  seq: 1573
  stamp: 
    secs: 1504484205
    nsecs: 803833164
  frame_id: crazyflie/base_link
values: [5292269.0, 5299653.0, 862200.125, 5299931.0, 426001.46875, 5299603.0]
---
header: 
  seq: 1574
  stamp: 
    secs: 1504484205
    nsecs: 903122955
  frame_id: crazyflie/base_link
values: [5260173.5, 5299957.5, 992609.8125, 5299998.5, 22393.052734375, 5299992.5]
---
header: 
  seq: 1575
  stamp: 
    secs: 1504484206
    nsecs:   1667191
  frame_id: crazyflie/base_link
values: [2700545.25, 5299993.5, 2635581.0, 5299998.5, 1369304.625, 5299983.5]
---
header: 
  seq: 1576
  stamp: 
    secs: 1504484206
    nsecs: 101910804
  frame_id: crazyflie/base_link
values: [3634400.25, 5299999.5, 2578380.0, 5300000.0, 1473141.0, 5300000.0]
---
header: 
  seq: 1577
  stamp: 
    secs: 1504484206
    nsecs: 202351370
  frame_id: crazyflie/base_link
values: [4799701.0, 5299999.5, 2832751.75, 5300000.0, 3637870.5, 5299999.5]
---
header: 
  seq: 1578
  stamp: 
    secs: 1504484206
    nsecs: 300190906
  frame_id: crazyflie/base_link
values: [4642950.5, 5299999.5, 5005372.0, 5300000.0, 2532552.25, 5299999.5]
---
header: 
  seq: 1579
  stamp: 
    secs: 1504484206
    nsecs: 400501288
  frame_id: crazyflie/base_link
values: [5299948.0, 5299995.5, 5299992.5, 5299999.5, 1064751.75, 5299881.5]
---
header: 
  seq: 1580
  stamp: 
    secs: 1504484206
    nsecs: 500728209
  frame_id: crazyflie/base_link
values: [5300000.0, 5299999.5, 4236519.0, 5299996.0, 4466953.5, 5299999.5]
---
header: 
  seq: 1581
  stamp: 
    secs: 1504484206
    nsecs: 600838356
  frame_id: crazyflie/base_link
values: [5299994.0, 5299944.0, 4340255.0, 5299999.5, 5299999.0, 5299999.5]
---
header: 
  seq: 1582
  stamp: 
    secs: 1504484206
    nsecs: 700325658
  frame_id: crazyflie/base_link
values: [5300000.0, 5299962.0, 4556094.5, 5299843.0, 5299998.5, 5299997.5]
---
header: 
  seq: 1583
  stamp: 
    secs: 1504484206
    nsecs: 798534725
  frame_id: crazyflie/base_link
values: [5299956.0, 5299872.5, 5299977.5, 5299918.0, 5299973.0, 5237563.5]
---
header: 
  seq: 1584
  stamp: 
    secs: 1504484206
    nsecs: 898846923
  frame_id: crazyflie/base_link
values: [5299961.0, 5299998.5, 5299984.0, 5300000.0, 5299934.5, 5299948.0]
---
header: 
  seq: 1585
  stamp: 
    secs: 1504484206
    nsecs: 998009463
  frame_id: crazyflie/base_link
values: [5299474.5, 5300000.0, 3194354.75, 5299978.0, 5297499.0, 5299886.5]
---
header: 
  seq: 1586
  stamp: 
    secs: 1504484207
    nsecs:  98259292
  frame_id: crazyflie/base_link
values: [5299996.0, 5299999.0, 3996005.25, 5300000.0, 5299999.5, 5299998.5]
---
header: 
  seq: 1587
  stamp: 
    secs: 1504484207
    nsecs: 197544474
  frame_id: crazyflie/base_link
values: [5299973.0, 5300000.0, 4805983.5, 5300000.0, 5299870.0, 5299964.0]
---
header: 
  seq: 1588
  stamp: 
    secs: 1504484207
    nsecs: 296660290
  frame_id: crazyflie/base_link
values: [5299992.5, 5299988.5, 4832181.0, 5299884.5, 5299824.0, 5299158.0]
---
header: 
  seq: 1589
  stamp: 
    secs: 1504484207
    nsecs: 396864792
  frame_id: crazyflie/base_link
values: [5299972.0, 5299972.0, 5292493.5, 5299982.5, 5299970.0, 5299631.5]
---
header: 
  seq: 1590
  stamp: 
    secs: 1504484207
    nsecs: 496539618
  frame_id: crazyflie/base_link
values: [5299494.5, 5299743.0, 5299924.5, 5300000.0, 5299974.0, 4830625.5]
---
header: 
  seq: 1591
  stamp: 
    secs: 1504484207
    nsecs: 596620362
  frame_id: crazyflie/base_link
values: [5299967.0, 5299968.5, 5219384.5, 5300000.0, 5300000.0, 5299989.5]
---
header: 
  seq: 1592
  stamp: 
    secs: 1504484207
    nsecs: 695510451
  frame_id: crazyflie/base_link
values: [5299967.0, 5299990.5, 5299422.0, 5299965.5, 5299951.0, 5299750.5]
---
header: 
  seq: 1593
  stamp: 
    secs: 1504484207
    nsecs: 796084064
  frame_id: crazyflie/base_link
values: [5298965.0, 5299766.0, 3447121.5, 5298943.0, 5299447.0, 5297668.5]
---
header: 
  seq: 1594
  stamp: 
    secs: 1504484207
    nsecs: 894539531
  frame_id: crazyflie/base_link
values: [5299987.0, 5299998.0, 4193728.5, 5300000.0, 5299999.0, 5299998.0]
---
header: 
  seq: 1595
  stamp: 
    secs: 1504484207
    nsecs: 995754777
  frame_id: crazyflie/base_link
values: [5299668.5, 5299997.0, 3961154.5, 5300000.0, 5299916.0, 5299908.0]
---
header: 
  seq: 1596
  stamp: 
    secs: 1504484208
    nsecs:  93758091
  frame_id: crazyflie/base_link
values: [5299712.5, 5299991.5, 5248102.0, 5299910.5, 5292712.0, 5298667.5]
---
header: 
  seq: 1597
  stamp: 
    secs: 1504484208
    nsecs: 194190556
  frame_id: crazyflie/base_link
values: [5299986.0, 5299992.5, 5068591.5, 5299993.5, 5299977.0, 5299940.0]
---
header: 
  seq: 1598
  stamp: 
    secs: 1504484208
    nsecs: 294520563
  frame_id: crazyflie/base_link
values: [5299933.5, 5299982.0, 3139826.5, 5300000.0, 5299908.0, 5299920.5]
---
header: 
  seq: 1599
  stamp: 
    secs: 1504484208
    nsecs: 394334303
  frame_id: crazyflie/base_link
values: [5299910.0, 5299991.0, 3894845.25, 5300000.0, 5299972.5, 5299931.0]
---
header: 
  seq: 1600
  stamp: 
    secs: 1504484208
    nsecs: 492887059
  frame_id: crazyflie/base_link
values: [5299998.0, 5299999.5, 5299997.5, 5300000.0, 5299998.0, 4941812.5]
---
header: 
  seq: 1601
  stamp: 
    secs: 1504484208
    nsecs: 593359472
  frame_id: crazyflie/base_link
values: [5299920.5, 5299899.5, 5256456.5, 5299897.0, 5299865.0, 5298373.5]
---
header: 
  seq: 1602
  stamp: 
    secs: 1504484208
    nsecs: 691511060
  frame_id: crazyflie/base_link
values: [5299973.5, 5299987.0, 3643996.5, 5299976.5, 5299977.0, 5299516.5]
---
header: 
  seq: 1603
  stamp: 
    secs: 1504484208
    nsecs: 799074040
  frame_id: crazyflie/base_link
values: [5299455.5, 5299194.0, 4943135.0, 5299500.0, 5299490.0, 5292027.5]
---
header: 
  seq: 1604
  stamp: 
    secs: 1504484208
    nsecs: 892335271
  frame_id: crazyflie/base_link
values: [5299809.0, 5299947.0, 4969391.5, 5300000.0, 5299952.5, 5299740.0]
---
header: 
  seq: 1605
  stamp: 
    secs: 1504484208
    nsecs: 990815042
  frame_id: crazyflie/base_link
values: [5299865.0, 5299883.5, 5190212.5, 5299845.0, 5299574.0, 5299309.0]
---
header: 
  seq: 1606
  stamp: 
    secs: 1504484209
    nsecs:  91167050
  frame_id: crazyflie/base_link
values: [5299824.0, 5299972.5, 3925317.0, 5300000.0, 5299970.0, 5299824.5]
---
header: 
  seq: 1607
  stamp: 
    secs: 1504484209
    nsecs: 193651171
  frame_id: crazyflie/base_link
values: [5299807.5, 5299973.5, 3687042.25, 5300000.0, 5299950.5, 5299882.0]
---
header: 
  seq: 1608
  stamp: 
    secs: 1504484209
    nsecs: 289583133
  frame_id: crazyflie/base_link
values: [5299568.0, 5299919.0, 5298093.0, 5299924.5, 5299416.0, 5128977.0]
---
header: 
  seq: 1609
  stamp: 
    secs: 1504484209
    nsecs: 390191877
  frame_id: crazyflie/base_link
values: [5299895.5, 5299996.0, 4155978.25, 5300000.0, 5299842.5, 3612692.75]
---
header: 
  seq: 1610
  stamp: 
    secs: 1504484209
    nsecs: 488416658
  frame_id: crazyflie/base_link
values: [5299887.0, 5299882.0, 4940667.5, 5299936.0, 5299886.0, 5297806.0]
---
header: 
  seq: 1611
  stamp: 
    secs: 1504484209
    nsecs: 588358278
  frame_id: crazyflie/base_link
values: [5299966.5, 5299988.0, 3654860.75, 5299998.5, 5299975.0, 5299840.5]
---
header: 
  seq: 1612
  stamp: 
    secs: 1504484209
    nsecs: 687869465
  frame_id: crazyflie/base_link
values: [5299932.0, 5299895.0, 5173664.0, 5299906.5, 5299894.0, 5297660.0]
---
header: 
  seq: 1613
  stamp: 
    secs: 1504484209
    nsecs: 787542266
  frame_id: crazyflie/base_link
values: [5299816.0, 5299838.0, 5248977.5, 5299891.5, 5299631.0, 5298519.5]
---
header: 
  seq: 1614
  stamp: 
    secs: 1504484209
    nsecs: 887460768
  frame_id: crazyflie/base_link
values: [5299252.0, 5299951.0, 4303245.5, 5299968.0, 5299554.0, 5295730.0]
---
header: 
  seq: 1615
  stamp: 
    secs: 1504484209
    nsecs: 986312375
  frame_id: crazyflie/base_link
values: [5299403.0, 5299946.5, 4767480.0, 5300000.0, 5299459.5, 5297843.5]
---
header: 
  seq: 1616
  stamp: 
    secs: 1504484210
    nsecs:  86276763
  frame_id: crazyflie/base_link
values: [5299945.5, 5299932.0, 4864885.5, 5299944.5, 5299912.0, 5296478.5]
---
header: 
  seq: 1617
  stamp: 
    secs: 1504484210
    nsecs: 186865672
  frame_id: crazyflie/base_link
values: [5299954.5, 5299977.5, 4354519.5, 5299992.5, 5299958.0, 5299188.0]
---
header: 
  seq: 1618
  stamp: 
    secs: 1504484210
    nsecs: 286922809
  frame_id: crazyflie/base_link
values: [5299960.0, 5299999.5, 2833307.75, 5300000.0, 5299974.0, 3850171.25]
---
header: 
  seq: 1619
  stamp: 
    secs: 1504484210
    nsecs: 386481209
  frame_id: crazyflie/base_link
values: [5299956.5, 5299983.0, 4584322.0, 5299996.0, 5299941.0, 5237038.5]
---
header: 
  seq: 1620
  stamp: 
    secs: 1504484210
    nsecs: 494812793
  frame_id: crazyflie/base_link
values: [5299895.0, 5299966.0, 4242351.5, 5299994.5, 5299861.5, 5028598.0]
---
header: 
  seq: 1621
  stamp: 
    secs: 1504484210
    nsecs: 584783521
  frame_id: crazyflie/base_link
values: [5299919.0, 5299936.0, 4469849.0, 5299956.5, 5299784.0, 5012810.0]
---
header: 
  seq: 1622
  stamp: 
    secs: 1504484210
    nsecs: 685465040
  frame_id: crazyflie/base_link
values: [4193186.5, 5299992.5, 4958877.0, 3769689.5, 5299994.5, 5299890.5]
---
header: 
  seq: 1623
  stamp: 
    secs: 1504484210
    nsecs: 785412107
  frame_id: crazyflie/base_link
values: [4187202.5, 5299996.5, 4329787.0, 3885958.5, 5300000.0, 5299998.5]
---
header: 
  seq: 1624
  stamp: 
    secs: 1504484210
    nsecs: 882934215
  frame_id: crazyflie/base_link
values: [1549852.25, 5299998.5, 5299996.0, 305.77593994140625, 5299999.5, 5187809.0]
---
header: 
  seq: 1625
  stamp: 
    secs: 1504484210
    nsecs: 982933803
  frame_id: crazyflie/base_link
values: [1901368.125, 5299996.0, 5047325.5, 1044745.625, 5299998.5, 5299997.0]
---
header: 
  seq: 1626
  stamp: 
    secs: 1504484211
    nsecs:  85658737
  frame_id: crazyflie/base_link
values: [4985723.5, 5300000.0, 2939151.0, 5299992.5, 4202121.5, 4218304.0]
---
header: 
  seq: 1627
  stamp: 
    secs: 1504484211
    nsecs: 183102693
  frame_id: crazyflie/base_link
values: [5229361.0, 5299999.5, 15.025652885437012, 5299991.0, 5247848.5, 1923445.5]
---
header: 
  seq: 1628
  stamp: 
    secs: 1504484211
    nsecs: 282129113
  frame_id: crazyflie/base_link
values: [1949742.75, 5299985.0, 5299911.5, 862706.625, 5299995.5, 4871689.5]
---
header: 
  seq: 1629
  stamp: 
    secs: 1504484211
    nsecs: 383075190
  frame_id: crazyflie/base_link
values: [1080219.75, 5299683.0, 5299757.5, 474371.65625, 5299973.0, 3983831.0]
---
header: 
  seq: 1630
  stamp: 
    secs: 1504484211
    nsecs: 483161730
  frame_id: crazyflie/base_link
values: [5182025.5, 5299986.5, 5299962.5, 5136455.0, 5300000.0, 4979513.5]
---
header: 
  seq: 1631
  stamp: 
    secs: 1504484211
    nsecs: 583106213
  frame_id: crazyflie/base_link
values: [5141221.0, 5299992.0, 3646740.75, 5299921.5, 5296708.5, 4973235.5]
---
header: 
  seq: 1632
  stamp: 
    secs: 1504484211
    nsecs: 680006804
  frame_id: crazyflie/base_link
values: [5299996.5, 5300000.0, 1744414.75, 5168504.0, 4925872.5, 2421159.25]
---
header: 
  seq: 1633
  stamp: 
    secs: 1504484211
    nsecs: 790149232
  frame_id: crazyflie/base_link
values: [5299754.5, 5299991.0, 4948692.0, 4943531.5, 5299941.5, 5237242.5]
---
header: 
  seq: 1634
  stamp: 
    secs: 1504484211
    nsecs: 879752386
  frame_id: crazyflie/base_link
values: [5299523.5, 5299976.5, 4895946.5, 5090137.5, 5299926.5, 5299533.0]
---
header: 
  seq: 1635
  stamp: 
    secs: 1504484211
    nsecs: 980068285
  frame_id: crazyflie/base_link
values: [4503056.5, 5299971.5, 4789375.5, 3635499.25, 5299996.5, 5299974.0]
---
header: 
  seq: 1636
  stamp: 
    secs: 1504484212
    nsecs:  80104609
  frame_id: crazyflie/base_link
values: [4936671.5, 5299999.5, 2273076.25, 5299992.0, 5034373.5, 2978943.0]
---
header: 
  seq: 1637
  stamp: 
    secs: 1504484212
    nsecs: 180752743
  frame_id: crazyflie/base_link
values: [5113812.5, 5299986.0, 3049156.25, 5299773.5, 5296026.0, 3744399.75]
---
header: 
  seq: 1638
  stamp: 
    secs: 1504484212
    nsecs: 278793633
  frame_id: crazyflie/base_link
values: [5299444.5, 5299975.5, 4685900.5, 5007232.0, 5299849.5, 5211010.5]
---
header: 
  seq: 1639
  stamp: 
    secs: 1504484212
    nsecs: 377839468
  frame_id: crazyflie/base_link
values: [5113160.0, 5299888.0, 5241330.5, 4309117.0, 5299972.0, 5299490.0]
---
header: 
  seq: 1640
  stamp: 
    secs: 1504484212
    nsecs: 477898491
  frame_id: crazyflie/base_link
values: [5299905.0, 5299993.0, 5157416.0, 4991182.5, 5299988.0, 5299926.0]
---
header: 
  seq: 1641
  stamp: 
    secs: 1504484212
    nsecs: 577911069
  frame_id: crazyflie/base_link
values: [5276678.5, 5299999.5, 2743739.75, 5299998.0, 5257558.0, 3703427.5]
---
header: 
  seq: 1642
  stamp: 
    secs: 1504484212
    nsecs: 677998448
  frame_id: crazyflie/base_link
values: [5292919.5, 5299991.5, 3412543.75, 5299941.0, 5299439.5, 4377739.0]
---
header: 
  seq: 1643
  stamp: 
    secs: 1504484212
    nsecs: 777825667
  frame_id: crazyflie/base_link
values: [5299887.5, 5299992.0, 3487664.25, 5021940.0, 5299786.0, 3914354.25]
---
header: 
  seq: 1644
  stamp: 
    secs: 1504484212
    nsecs: 877921706
  frame_id: crazyflie/base_link
values: [5299974.5, 5300000.0, 5257835.5, 4586280.5, 5299963.0, 5244897.5]
---
header: 
  seq: 1645
  stamp: 
    secs: 1504484212
    nsecs: 975836043
  frame_id: crazyflie/base_link
values: [5299802.0, 5299989.5, 4653519.0, 4659090.0, 5299998.5, 5299954.5]
---
header: 
  seq: 1646
  stamp: 
    secs: 1504484213
    nsecs:  76308666
  frame_id: crazyflie/base_link
values: [5299720.5, 5299989.5, 4284355.5, 5016554.5, 5299964.0, 5237069.5]
---
